[
  {
    "name": "Lotus Multispeciality Hospital",
    "type": "hospital",
    "location": "Gittikhadan, Nagpur",
    "budget": "high",
    "lat": 21.1581,
    "lon": 79.0815,
    "services": ["Advanced Surgery", "ICU", "Specialist Doctors"],
    "address": "Plot No. 1, Gittikhadan Square, Gittikhadan, Nagpur, Maharashtra 440013",
    "contact": "+917122500000"
  },
  {
    "name": "Orange City Hospital & Research Institute",
    "type": "hospital",
    "location": "Umakar Nagar, Nagpur",
    "budget": "high",
    "lat": 21.1458,
    "lon": 79.0883,
    "services": ["Cardiology", "Neurology", "Oncology", "Emergency Services"],
    "address": "Narendra Nagar Square, Umakar Nagar, Nagpur, Maharashtra 440015",
    "contact": "+917126634800"
  },
  {
    "name": "Care Hospitals, Nagpur",
    "type": "hospital",
    "location": "Sitabuldi, Nagpur",
    "budget": "high",
    "lat": 21.1444,
    "lon": 79.0864,
    "services": ["Multi-speciality", "Trauma Care", "Diagnostics"],
    "address": "Plot No. 1, Central Bazar Road, Sitabuldi, Nagpur, Maharashtra 440012",
    "contact": "+917126622222"
  },
  {
    "name": "Kingsway Hospitals, Nagpur",
    "type": "hospital",
    "location": "Wardha Road, Nagpur",
    "budget": "high",
    "lat": 21.0827,
    "lon": 79.0664,
    "services": ["Cardiac Surgery", "Organ Transplant", "Critical Care"],
    "address": "Plot No. 1, Wardha Road, Nagpur, Maharashtra 440015",
    "contact": "+917126611111"
  },
  {
    "name": "Alexis Multispeciality Hospital",
    "type": "hospital",
    "location": "Mankapur, Nagpur",
    "budget": "high",
    "lat": 21.1895,
    "lon": 79.0717,
    "services": ["Neurosciences", "Orthopedics", "Gastroenterology"],
    "address": "Survey No. 232, Mankapur Square, Mankapur, Nagpur, Maharashtra 440030",
    "contact": "+917126677777"
  },
  {
    "name": "Indo Rama Multispeciality Hospital",
    "type": "hospital",
    "location": "Central MIDC Road, Hingna, Nagpur",
    "budget": "medium",
    "lat": 21.1077,
    "lon": 79.0125,
    "services": ["General Surgery", "Internal Medicine", "Pediatrics"],
    "address": "Central MIDC Road, Hingna, Nagpur, Maharashtra 440016",
    "contact": "+917104660000"
  },
  {
    "name": "Wockhardt Hospitals, Nagpur",
    "type": "hospital",
    "location": "North Ambazari Road, Nagpur",
    "budget": "high",
    "lat": 21.1424,
    "lon": 79.0641,
    "services": ["Heart Institute", "Joint Replacement", "Spine Surgery"],
    "address": "North Ambazari Road, Nagpur, Maharashtra 440010",
    "contact": "+917126624444"
  },
  {
    "name": "Arogyam Superspeciality Hospital",
    "type": "hospital",
    "location": "Trimurti Nagar, Nagpur",
    "budget": "medium",
    "lat": 21.1351,
    "lon": 79.0528,
    "services": ["General Medicine", "Diabetes Care", "Diagnostic Services"],
    "address": "Plot No. 2, Trimurti Nagar Square, Trimurti Nagar, Nagpur, Maharashtra 440022",
    "contact": "+917126612222"
  },
  {
    "name": "Dr. Hedgewar Rugna Seva Mandal",
    "type": "hospital",
    "location": "Reshimbagh, Nagpur",
    "budget": "low",
    "lat": 21.1398,
    "lon": 79.1026,
    "services": ["General Checkup", "Basic Treatments", "Community Health"],
    "address": "Reshimbagh Ground, Reshimbagh, Nagpur, Maharashtra 440009",
    "contact": "+917122740500"
  },
  {
    "name": "Shri Krishna Hruday Rog Chikitsalaya",
    "type": "clinic",
    "location": "Dharampeth, Nagpur",
    "budget": "medium",
    "lat": 21.1509,
    "lon": 79.0709,
    "services": ["Cardiology", "ECG", "Heart Checkup"],
    "address": "12, Shankar Nagar Square, Dharampeth, Nagpur, Maharashtra 440010",
    "contact": "+917122530400"
  },
  {
    "name": "Nagpur Dental Clinic",
    "type": "clinic",
    "location": "Civil Lines, Nagpur",
    "budget": "medium",
    "lat": 21.1578,
    "lon": 79.0886,
    "services": ["Dental Checkup", "Root Canal", "Teeth Whitening"],
    "address": "15, Civil Lines Square, Civil Lines, Nagpur, Maharashtra 440001",
    "contact": "+917122520300"
  },
  {
    "name": "Ayurveda Clinic Nagpur",
    "type": "clinic",
    "location": "Ramdaspeth, Nagpur",
    "budget": "medium",
    "lat": 21.1422,
    "lon": 79.0784,
    "services": ["Ayurvedic Treatments", "Panchakarma", "Herbal Medicine"],
    "address": "10, Ramdaspeth Square, Ramdaspeth, Nagpur, Maharashtra 440010",
    "contact": "+917122540500"
  },
  {
    "name": "Sai Eye Hospital",
    "type": "clinic",
    "location": "Bajaj Nagar, Nagpur",
    "budget": "medium",
    "lat": 21.1302,
    "lon": 79.0634,
    "services": ["Eye Checkup", "Cataract Surgery", "Retina Treatment"],
    "address": "20, Bajaj Nagar Square, Bajaj Nagar, Nagpur, Maharashtra 440010",
    "contact": "+917122550600"
  },
  {
    "name": "Meditrina Institute of Medical Sciences",
    "type": "hospital",
    "location": "Ramdaspeth, Nagpur",
    "budget": "high",
    "lat": 21.1444,
    "lon": 79.0811,
    "services": ["Cardiac Care", "Neurology", "Oncology"],
    "address": "11, Ramdaspeth, Nagpur, Maharashtra 440010",
    "contact": "+917126606000"
  },
  {
    "name": "Seven Star Hospital",
    "type": "hospital",
    "location": "Wardha Road, Nagpur",
    "budget": "medium",
    "lat": 21.0792,
    "lon": 79.0658,
    "services": ["General Surgery", "Pediatrics", "Orthopedics"],
    "address": "Plot No. 7, Wardha Road, Nagpur, Maharashtra 440015",
    "contact": "+917126617777"
  },
  {
    "name": "Vivekanand Hospital",
    "type": "hospital",
    "location": "Dhantoli, Nagpur",
    "budget": "medium",
    "lat": 21.1378,
    "lon": 79.0858,
    "services": ["Internal Medicine", "Gynecology", "Urology"],
    "address": "Plot No. 3, Dhantoli, Nagpur, Maharashtra 440012",
    "contact": "+917122440200"
  },
  {
    "name": "CIIMS Hospital",
    "type": "hospital",
    "location": "Central Jail Road, Nagpur",
    "budget": "high",
    "address": "Central Jail Road, Nagpur, Maharashtra 440008",
    "contact": "+917126681111",
    "lat": 21.1415,
    "lon": 79.1171,
    "services": ["Neuro Surgery", "Trauma Care", "Critical Care"]
  },
  {
    "name": "New Era Hospital",
    "type": "hospital",
    "location": "Ring Road, Nagpur",
    "budget": "medium",
    "lat": 21.1593,
    "lon": 79.0494,
    "services": ["General Medicine", "Surgery", "Diagnostics"],
    "address": "Ring Road, Nagpur, Maharashtra 440022",
    "contact": "+917126655555"
  },
  {
    "name": "Getwell Hospital",
    "type": "hospital",
    "location": "Manish Nagar, Nagpur",
    "budget": "medium",
    "lat": 21.0967,
    "lon": 79.0577,
    "services": ["Orthopedics", "General Surgery", "Physiotherapy"],
    "address": "Manish Nagar, Nagpur, Maharashtra 440015",
    "contact": "+917126613333"
  },
  {
    "name": "National Cancer Institute",
    "type": "hospital",
    "location": "Jamtha, Nagpur",
    "budget": "high",
    "lat": 21.0567,
    "lon": 79.0768,
    "services": ["Oncology", "Radiotherapy", "Chemotherapy"],
    "address": "Jamtha, Nagpur, Maharashtra 440003",
    "contact": "+917126699999"
  },
  {
    "name": "Aditya Birla Memorial Hospital",
    "type": "hospital",
    "location": "Hingna Road, Nagpur",
    "budget": "high",
    "lat": 21.1022,
    "lon": 79.0212,
    "services": ["Cardiology", "Neurology", "Emergency Services"],
    "address": "Hingna Road, Nagpur, Maharashtra 440016",
    "contact": "+917104662222"
  },
  {
    "name": "Dr. Lade Hospital",
    "type": "hospital",
    "location": "Dharampeth, Nagpur",
    "budget": "medium",
    "lat": 21.1501,
    "lon": 79.0718,
    "services": ["General Surgery", "Gynecology", "Pediatrics"],
    "address": "Dharampeth, Nagpur, Maharashtra 440010",
    "contact": "+917122530500"
  },
  {
    "name": "Nagpur Children Hospital",
    "type": "hospital",
    "location": "Bajaj Nagar, Nagpur",
    "budget": "medium",
    "lat": 21.1287,
    "lon": 79.0645,
    "services": ["Pediatrics", "Neonatology", "Child Care"],
    "address": "Bajaj Nagar, Nagpur, Maharashtra 440010",
    "contact": "+917122550700"
  },
  {
    "name": "Aastha Hospital",
    "type": "hospital",
    "location": "Wardha Road, Nagpur",
    "budget": "medium",
    "lat": 21.0855,
    "lon": 79.0689,
    "services": ["General Medicine", "Surgery", "Diagnostics"],
    "address": "Wardha Road, Nagpur, Maharashtra 440015",
    "contact": "+917126618888"
  },
  {
    "name": "Panchsheel Hospital",
    "type": "hospital",
    "location": "Nandanvan, Nagpur",
    "budget": "medium",
    "lat": 21.1274,
    "lon": 79.1102,
    "services": ["Orthopedics", "Gynecology", "General Surgery"],
    "address": "Nandanvan, Nagpur, Maharashtra 440009",
    "contact": "+917122700400"
  },
  {
    "name": "Shalinitai Meghe Hospital & Research Centre",
    "type": "hospital",
    "location": "Wanadongri, Nagpur",
    "budget": "high",
    "lat": 21.0991,
    "lon": 78.9691,
    "services": ["Multi-speciality", "Research", "Education"],
    "address": "Wanadongri, Nagpur, Maharashtra 441110",
    "contact": "+917126670000"
  },
  {
    "name": "KDK Hospital",
    "type": "hospital",
    "location": "Nandanvan, Nagpur",
    "budget": "medium",
    "lat": 21.1288,
    "lon": 79.1093,
    "services": ["General Medicine", "Surgery", "Diagnostics"],
    "address": "Nandanvan, Nagpur, Maharashtra 440009",
    "contact": "+917122700500"
  },
  {
    "name": "Dr. Babasaheb Ambedkar Superspeciality Institute",
    "type": "hospital",
    "location": "North Ambazari Road, Nagpur",
    "budget": "high",
    "lat": 21.1444,
    "lon": 79.0583,
    "services": ["Neuro Surgery", "Cardiology", "Organ Transplant"],
    "address": "North Ambazari Road, Nagpur, Maharashtra 440010",
    "contact": "+917126625555"
  },
  {
    "name": "Platinum Hospital",
    "type": "hospital",
    "location": "Wardha Road, Nagpur",
    "budget": "medium",
    "lat": 21.0838,
    "lon": 79.0682,
    "services": ["General Medicine", "Surgery", "Diagnostics"],
    "address": "Wardha Road, Nagpur, Maharashtra 440015",
    "contact": "+917126619999"
  },
  {
    "name": "Tulsi Multispeciality Hospital",
    "type": "hospital",
    "location": "Manish Nagar, Nagpur",
    "budget": "medium",
    "lat": 21.0963,
    "lon": 79.0558,
    "services": ["Orthopedics", "Gynecology", "General Surgery"],
    "address": "Manish Nagar, Nagpur, Maharashtra 440015",
    "contact": "+917126614444"
  },
  {
    "name": "Nephrocare Hospital",
    "type": "hospital",
    "location": "Ramdaspeth, Nagpur",
    "budget": "medium",
    "lat": 21.1429,
    "lon": 79.0792,
    "services": ["Nephrology", "Dialysis", "Kidney Transplant"],
    "address": "Ramdaspeth, Nagpur, Maharashtra 440010",
    "contact": "+917122540600"
  },
  {
    "name": "Eye Care Hospital",
    "type": "clinic",
    "location": "Sitabuldi, Nagpur",
    "budget": "medium",
    "lat": 21.1465,
    "lon": 79.0858,
    "services": ["Eye Checkup", "Cataract Surgery", "Retina Treatment"],
    "address": "Sitabuldi, Nagpur, Maharashtra 440012",
    "contact": "+917122510400"
  },
  {
    "name": "Skin Clinic Nagpur",
    "type": "clinic",
    "location": "Civil Lines, Nagpur",
    "budget": "medium",
    "lat": 21.1582,
    "lon": 79.0877,
    "services": ["Dermatology", "Cosmetic Treatments", "Skin Diseases"],
    "address": "Civil Lines, Nagpur, Maharashtra 440001",
    "contact": "+917122520400"
  },
  {
    "name": "Homeopathy Clinic Nagpur",
    "type": "clinic",
    "location": "Dharampeth, Nagpur",
    "budget": "low",
    "lat": 21.1517,
    "lon": 79.0722,
    "services": ["Homeopathic Treatments", "General Health", "Chronic Diseases"],
    "address": "Dharampeth, Nagpur, Maharashtra 440010",
    "contact": "+917122530600"
  },
  {
    "name": "Physiotherapy Center Nagpur",
    "type": "clinic",
    "location": "Bajaj Nagar, Nagpur",
    "budget": "medium",
    "lat": 21.1299,
    "lon": 79.0628,
    "services": ["Physiotherapy", "Rehabilitation", "Pain Management"],
    "address": "Bajaj Nagar, Nagpur, Maharashtra 440010",
    "contact": "+917122550800"
  },
  {
    "name": "Diagnostic Center Nagpur",
    "type": "clinic",
    "location": "Ramdaspeth, Nagpur",
    "budget": "medium",
    "lat": 21.1436,
    "lon": 79.0788,
    "services": ["Pathology", "Radiology", "Diagnostics"],
    "address": "Ramdaspeth, Nagpur, Maharashtra 440010",
    "contact": "+917122540700"
  },
  {
    "name": "Dr. Agrawal's Eye Hospital",
    "type": "clinic",
    "location": "Dharampeth, Nagpur",
    "budget": "medium",
    "lat": 21.1513,
    "lon": 79.0715,
    "services": ["Eye Checkup", "Cataract Surgery", "Retina Treatment"],
    "address": "Dharampeth, Nagpur, Maharashtra 440010",
    "contact": "+917122530700"
  },
  {
    "name": "Dr. Batra's Positive Health Clinic",
    "type": "clinic",
    "location": "Civil Lines, Nagpur",
    "budget": "medium",
    "lat": 21.1575,
    "lon": 79.0881,
    "services": ["Homeopathy", "Hair Treatments", "Skin Treatments"],
    "address": "Civil Lines, Nagpur, Maharashtra 440001",
    "contact": "+917122520500"
  },
  {
    "name": "Apollo Clinic Nagpur",
    "type": "clinic",
    "location": "Sitabuldi, Nagpur",
    "budget": "medium",
    "lat": 21.1458,
    "lon": 79.0855,
    "services": ["General Medicine", "Diagnostics", "Specialist Consultations"],
    "address": "Sitabuldi, Nagpur, Maharashtra 440012",
    "contact": "+917122510500"
  },
  {
    "name": "Dr. Lal PathLabs",
    "type": "clinic",
    "location": "Ramdaspeth, Nagpur",
    "budget": "medium",
    "lat": 21.1432,
    "lon": 79.0781,
    "services": ["Pathology", "Diagnostics", "Lab Tests"],
    "address": "Ramdaspeth, Nagpur, Maharashtra 440010",
    "contact": "+917122540800"
  },
  {
    "name": "Thyrocare",
    "type": "clinic",
    "location": "Bajaj Nagar, Nagpur",
    "budget": "medium",
    "lat": 21.1296,
    "lon": 79.0631,
    "services": ["Pathology", "Diagnostics", "Lab Tests"],
    "address": "Bajaj Nagar, Nagpur, Maharashtra 440010",
    "contact": "+917122550900"
  },
  {
    "name": "Maxivision Eye Hospitals",
    "type": "clinic",
    "location": "Dharampeth, Nagpur",
    "budget": "medium",
    "lat": 21.1508,
    "lon": 79.0711,
    "services": ["Eye Checkup", "Cataract Surgery", "Retina Treatment"],
    "address": "Dharampeth, Nagpur, Maharashtra 440010",
    "contact": "+917122530800"
  },
  {
    "name": "Aarogyam Clinic",
    "type": "clinic",
    "location": "Civil Lines, Nagpur",
    "budget": "low",
    "lat": 21.1585,
    "lon": 79.0874,
    "services": ["General Checkup", "Basic Treatments", "Family Medicine"],
    "address": "Civil Lines, Nagpur, Maharashtra 440001",
    "contact": "+917122520600"
  },
  {
    "name": "Smile Care Dental Clinic",
    "type": "clinic",
    "location": "Sitabuldi, Nagpur",
    "budget": "medium",
    "lat": 21.1461,
    "lon": 79.0861,
    "services": ["Dental Checkup", "Root Canal", "Teeth Whitening"],
    "address": "Sitabuldi, Nagpur, Maharashtra 440012",
    "contact": "+917122510600"
  },
  {
    "name": "Arogya Dham",
    "type": "clinic",
    "location": "Ramdaspeth, Nagpur",
    "budget": "low",
    "lat": 21.1439,
    "lon": 79.0785,
    "services": ["General Checkup", "Basic Treatments", "Family Medicine"],
    "address": "Ramdaspeth, Nagpur, Maharashtra 440010",
    "contact": "+917122540900"
  },
  {
    "name": "Niramay Clinic",
    "type": "clinic",
    "location": "Bajaj Nagar",
    "budget": "low",
    "lat": 21.1293,
    "lon": 79.0625,
    "services": ["General Checkup", "Basic Treatments", "Family Medicine"],
    "address": "Bajaj Nagar, Nagpur, Maharashtra 440010",
    "contact": "+917122551000"
  },
  {
    "name": "Sanjeevani Clinic",
    "type": "clinic",
    "location": "Dharampeth, Nagpur",
    "budget": "low",
    "lat": 21.1520,
    "lon": 79.0719,
    "services": ["General Checkup", "Basic Treatments", "Family Medicine"],
    "address": "Dharampeth, Nagpur, Maharashtra 440010",
    "contact": "+917122530900"
  },
  {
    "name": "Life Care Clinic",
    "type": "clinic",
    "location": "Civil Lines, Nagpur",
    "budget": "low",
    "lat": 21.1578,
    "lon": 79.0878,
    "services": ["General Checkup", "Basic Treatments", "Family Medicine"],
    "address": "Civil Lines, Nagpur, Maharashtra 440001",
    "contact": "+917122520700"
  },
  {
    "name": "Shree Clinic",
    "type": "clinic",
    "location": "Sitabuldi, Nagpur",
    "budget": "low",
    "lat": 21.1468,
    "lon": 79.0864,
    "services": ["General Checkup", "Basic Treatments", "Family Medicine"],
    "address": "Sitabuldi, Nagpur, Maharashtra 440012",
    "contact": "+917122510700"
  },
  {
    "name": "Health Point Clinic",
    "type": "clinic",
    "location": "Ramdaspeth, Nagpur",
    "budget": "low",
    "lat": 21.1435,
    "lon": 79.0782,
    "services": ["General Checkup", "Basic Treatments", "Family Medicine"],
    "address": "Ramdaspeth, Nagpur, Maharashtra 440010",
    "contact": "+917122541000"
  },
  {
    "name": "Wellness Clinic",
    "type": "clinic",
    "location": "Bajaj Nagar",
    "budget": "low",
    "lat": 21.1290,
    "lon": 79.0622,
    "services": ["General Checkup", "Basic Treatments", "Family Medicine"],
    "address": "Bajaj Nagar, Nagpur, Maharashtra 440010",
    "contact": "+917122551100"
  },
  {
    "name": "City Clinic",
    "type": "clinic",
    "location": "Dharampeth, Nagpur",
    "budget": "low",
    "lat": 21.1523,
    "lon": 79.0725,
    "services": ["General Checkup", "Basic Treatments", "Family Medicine"],
    "address": "Dharampeth, Nagpur, Maharashtra 440010",
    "contact": "+917122531000"
  },
  {
    "name": "Metro Clinic",
    "type": "clinic",
    "location": "Civil Lines, Nagpur",
    "budget": "low",
    "lat": 21.1575,
    "lon": 79.0881,
    "services": ["General Checkup", "Basic Treatments", "Family Medicine"],
    "address": "Civil Lines, Nagpur, Maharashtra 440001",
    "contact": "+917122520800"
  },
  {
    "name": "Family Health Clinic",
    "type": "clinic",
    "location": "Sitabuldi, Nagpur",
    "budget": "low",
    "lat": 21.1471,
    "lon": 79.0867,
    "services": ["General Checkup", "Basic Treatments", "Family Medicine"],
    "address": "Sitabuldi, Nagpur, Maharashtra 440012",
    "contact": "+917122510800"
  },
  {
    "name": "Sunshine Clinic",
    "type": "clinic",
    "location": "Ramdaspeth, Nagpur",
    "budget": "low",
    "lat": 21.1438,
    "lon": 79.0789,
    "services": ["General Checkup", "Basic Treatments", "Family Medicine"],
    "address": "Ramdaspeth, Nagpur, Maharashtra 440010",
    "contact": "+917122541100"
  },
  {
    "name": "Global Clinic",
    "type": "clinic",
    "location": "Bajaj Nagar",
    "budget": "low",
    "lat": 21.1287,
    "lon": 79.0619,
    "services": ["General Checkup", "Basic Treatments", "Family Medicine"],
    "address": "Bajaj Nagar, Nagpur, Maharashtra 440010",
    "contact": "+917122551200"
  },
  {
    "name": "Prime Clinic",
    "type": "clinic",
    "location": "Dharampeth, Nagpur",
    "budget": "low",
    "lat": 21.1526,
    "lon": 79.0728,
    "services": ["General Checkup", "Basic Treatments", "Family Medicine"],
    "address": "Dharampeth, Nagpur, Maharashtra 440010",
    "contact": "+917122531100"
  },
  {
    "name": "Apex Clinic",
    "type": "clinic",
    "location": "Civil Lines, Nagpur",
    "budget": "low",
    "lat": 21.1572,
    "lon": 79.0884,
    "services": ["General Checkup", "Basic Treatments", "Family Medicine"],
    "address": "Civil Lines, Nagpur, Maharashtra 440001",
    "contact": "+917122520900"
  },
  {
    "name": "Health Plus Clinic",
    "type": "clinic",
    "location": "Sitabuldi, Nagpur",
    "budget": "low",
    "lat": 21.1474,
    "lon": 79.0870,
    "services": ["General Checkup", "Basic Treatments", "Family Medicine"],
    "address": "Sitabuldi, Nagpur, Maharashtra 440012",
    "contact": "+917122510900"
  },
  {
    "name": "Vitality Clinic",
    "type": "clinic",
    "location": "Ramdaspeth, Nagpur",
    "budget": "low",
    "lat": 21.1441,
    "lon": 79.0792,
    "services": ["General Checkup", "Basic Treatments", "Family Medicine"],
    "address": "Ramdaspeth, Nagpur, Maharashtra 440010",
    "contact": "+917122541200"
  }]
